$GPGGA,220221.000,2032.5446,N,10049.3680,W,1,6,1.51,1777.8,M,-9.6,M,,*61
$GPGSA,A,3,25,06,29,02,12,05,,,,,,,1.78,1.51,0.93*0D
$GPRMC,220221.000,A,2032.5446,N,10049.3680,W,0.64,287.00,240521,,,A*73
$GPVTG,287.00,T,,M,0.64,N,1.18,K,A*3A
$GPGGA,220222.000,2032.5417,N,10049.3683,W,1,6,1.51,1769.8,M,-9.6,M,,*6A
$GPGSA,A,3,25,06,29,02,12,05,,,,,,,1.78,1.51,0.93*0D
$GPGSV,4,1,13,05,85,154,24,12,69,226,27,20,65,223,,51,64,197,*74
$GPGSV,4,2,13,25,47,298,24,02,34,033,26,29,18,320,17,13,16,144,*7C
$GPGSV,4,3,13,15,15,177,,19,09,109,,06,07,056,17,24,07,203,*70
$GPGSV,4,4,13,18,06,261,*41
$GPRMC,220222.000,A,2032.5417,N,10049.3683,W,0.51,287.00,240521,,,A*71
$GPVTG,287.00,T,,M,0.51,N,0.94,K,A*39
$GPGGA,220223.000,2032.5397,N,10049.3699,W,1,7,1.36,1757.4,M,-9.6,M,,*6E
$GPGSA,A,3,20,25,06,29,02,12,05,,,,,,1.65,1.36,0.92*03
$GPRMC,220223.000,A,2032.5397,N,10049.3699,W,0.22,287.00,240521,,,A*70
$GPVTG,287.00,T,,M,0.22,N,0.40,K,A*34
$GPGGA,220224.000,2032.5422,N,10049.3700,W,1,7,1.92,1763.9,M,-9.6,M,,*65
$GPGSA,A,3,20,25,06,29,02,12,05,,,,,,3.08,1.92,2.41*08
$GPRMC,220224.000,A,2032.5422,N,10049.3700,W,0.67,4.29,240521,,,A*7C
$GPVTG,4.29,T,,M,0.67,N,1.24,K,A*34
$GPGGA,220225.000,2032.5422,N,10049.3695,W,1,7,1.36,1763.7,M,-9.6,M,,*69
$GPGSA,A,3,20,25,06,29,02,12,05,,,,,,1.65,1.36,0.92*03
$GPRMC,220225.000,A,2032.5422,N,10049.3695,W,0.41,4.29,240521,,,A*74
$GPVTG,4.29,T,,M,0.41,N,0.75,K,A*35
$GPGGA,220226.000,2032.5432,N,10049.3695,W,1,7,1.36,1771.8,M,-9.6,M,,*67
$GPGSA,A,3,20,25,06,29,02,12,05,,,,,,1.65,1.36,0.92*03
$GPRMC,220226.000,A,2032.5432,N,10049.3695,W,0.48,4.29,240521,,,A*7F
$GPVTG,4.29,T,,M,0.48,N,0.88,K,A*3E
$GPGGA,220227.000,2032.5444,N,10049.3701,W,1,8,1.02,1772.9,M,-9.6,M,,*61
$GPGSA,A,3,20,25,06,29,15,02,12,05,,,,,1.29,1.02,0.78*0C
$GPGSV,4,1,13,05,85,154,25,12,69,226,27,20,65,223,22,44,59,219,*7A
$GPGSV,4,2,13,25,47,298,25,02,34,033,27,29,18,320,17,13,16,144,*7C
$GPGSV,4,3,13,15,15,177,18,19,09,109,,06,07,056,16,24,07,203,*78
$GPGSV,4,4,13,18,06,261,*41
$GPRMC,220227.000,A,2032.5444,N,10049.3701,W,0.60,275.17,240521,,,A*70
$GPVTG,275.17,T,,M,0.60,N,1.11,K,A*3C
$GPGGA,220228.000,2032.5437,N,10049.3711,W,1,8,1.02,1762.7,M,-9.6,M,,*64
$GPGSA,A,3,20,25,06,29,15,02,12,05,,,,,1.29,1.02,0.78*0C
$GPRMC,220228.000,A,2032.5437,N,10049.3711,W,0.07,275.17,240521,,,A*7B
$GPVTG,275.17,T,,M,0.07,N,0.13,K,A*3E
$GPGGA,220229.000,2032.5442,N,10049.3714,W,1,8,1.02,1759.1,M,-9.6,M,,*6C
$GPGSA,A,3,20,25,06,29,15,02,12,05,,,,,1.29,1.02,0.78*0C
$GPRMC,220229.000,A,2032.5442,N,10049.3714,W,0.19,275.17,240521,,,A*72
$GPVTG,275.17,T,,M,0.19,N,0.36,K,A*36
$GPGGA,220230.000,2032.5441,N,10049.3710,W,1,8,1.06,1759.9,M,-9.6,M,,*6F
$GPGSA,A,3,20,25,06,29,15,02,12,05,,,,,1.63,1.06,1.24*0E
$GPRMC,220230.000,A,2032.5441,N,10049.3710,W,0.53,275.17,240521,,,A*73
$GPVTG,275.17,T,,M,0.53,N,0.99,K,A*3D
$GPGGA,220231.000,2032.5421,N,10049.3698,W,1,8,1.02,1762.4,M,-9.6,M,,*68
$GPGSA,A,3,20,25,06,29,15,02,12,05,,,,,1.29,1.02,0.78*0C
$GPRMC,220231.000,A,2032.5421,N,10049.3698,W,0.45,275.17,240521,,,A*72
$GPVTG,275.17,T,,M,0.45,N,0.84,K,A*36
$GPGGA,220232.000,2032.5399,N,10049.3707,W,1,8,1.02,1754.8,M,-9.6,M,,*61
$GPGSA,A,3,20,25,06,29,15,02,12,05,,,,,1.29,1.02,0.78*0C
$GPGSV,4,1,13,05,85,154,25,12,69,226,27,20,65,223,20,44,59,219,28*72
$GPGSV,4,2,13,25,47,298,25,02,34,033,26,29,18,320,17,13,16,144,*7D
$GPGSV,4,3,13,15,15,177,17,19,09,109,,06,07,056,16,24,07,203,*77
$GPGSV,4,4,13,18,06,261,*41
$GPRMC,220232.000,A,2032.5399,N,10049.3707,W,0.18,275.17,240521,,,A*7A
$GPVTG,275.17,T,,M,0.18,N,0.33,K,A*32
$GPGGA,220233.000,2032.5408,N,10049.3708,W,1,8,1.02,1760.4,M,-9.6,M,,*6B
$GPGSA,A,3,20,25,06,29,15,02,12,05,,,,,1.29,1.02,0.78*0C
$GPRMC,220233.000,A,2032.5408,N,10049.3708,W,0.48,275.17,240521,,,A*7E
$GPVTG,275.17,T,,M,0.48,N,0.90,K,A*3E
$GPGGA,220234.000,2032.5417,N,10049.3702,W,1,8,1.02,1761.0,M,-9.6,M,,*6D
$GPGSA,A,3,20,25,06,29,15,02,12,05,,,,,1.29,1.02,0.78*0C
$GPRMC,220234.000,A,2032.5417,N,10049.3702,W,0.39,275.17,240521,,,A*7B
$GPVTG,275.17,T,,M,0.39,N,0.73,K,A*35
$GPGGA,220235.000,2032.5428,N,10049.3693,W,1,8,1.02,1767.8,M,-9.6,M,,*67
$GPGSA,A,3,20,25,06,29,15,02,12,05,,,,,1.29,1.02,0.78*0C
$GPRMC,220235.000,A,2032.5428,N,10049.3693,W,0.26,275.17,240521,,,A*71
$GPVTG,275.17,T,,M,0.26,N,0.47,K,A*3C
$GPGGA,220236.000,2032.5429,N,10049.3688,W,1,8,1.02,1767.6,M,-9.6,M,,*61
$GPGSA,A,3,20,25,06,29,15,02,12,05,,,,,1.29,1.02,0.78*0C
$GPRMC,220236.000,A,2032.5429,N,10049.3688,W,0.75,280.32,240521,,,A*72
$GPVTG,280.32,T,,M,0.75,N,1.39,K,A*3F
$GPGGA,220237.000,2032.5430,N,10049.3684,W,1,8,1.02,1767.5,M,-9.6,M,,*67
$GPGSA,A,3,20,25,06,29,15,02,12,05,,,,,1.29,1.02,0.78*0C
$GPGSV,4,1,13,05,86,152,26,12,69,226,27,20,65,223,22,25,47,298,26*79
$GPGSV,4,2,13,48,46,240,,02,34,034,27,29,18,320,17,13,16,144,*73
$GPGSV,4,3,13,15,15,177,18,19,09,109,,06,07,056,17,24,07,203,*79
$GPGSV,4,4,13,18,06,261,*41
$GPRMC,220237.000,A,2032.5430,N,10049.3684,W,0.52,280.32,240521,,,A*72
$GPVTG,280.32,T,,M,0.52,N,0.97,K,A*3F
